City_ID,City,Country,Max Temp,Current Description,Lat,Lng,Hotel Name
0,Lichinga,MZ,67.42,scattered clouds,-13.3128,35.2406,Residencial Bendiak
1,Syracuse,IT,67.59,clear sky,37.0881,15.2792,Hotel Posta
2,Nador,MA,62.85,broken clouds,35.174,-2.9287,Hôtel La Giralda
3,Naze,JP,70.72,broken clouds,28.3667,129.4833,Shishime Hotel
4,Bredasdorp,ZA,58.08,overcast clouds,-34.5322,20.0403,Bredasdorp Country Manor
5,Mar Del Plata,AR,66.22,moderate rain,-38.0023,-57.5575,Gran Hotel Mar del Plata
6,Ushuaia,AR,62.26,scattered clouds,-54.8,-68.3,Albatross Hotel
7,Rabo De Peixe,PT,61.29,broken clouds,37.8,-25.5833,Quinta das Giestas
9,Kaitangata,NZ,54.0,overcast clouds,-46.2817,169.8464,Kaitangata Motor Camp
10,Cabo San Lucas,MX,83.61,few clouds,22.8909,-109.9124,Hotel Tesoro Los Cabos
11,Cachoeira Do Sul,BR,88.32,clear sky,-30.0392,-52.8939,Rede Bonnel Tropical Hotel Confort
13,Mazatlan,MX,82.36,scattered clouds,23.2167,-106.4167,Hotel La Siesta
14,Cidreira,BR,72.28,clear sky,-30.1811,-50.2056,Hotel Castelo
15,Punta Arenas,CL,60.91,broken clouds,-53.15,-70.9167,Hotel Hain
18,Sinnamary,GF,82.49,scattered clouds,5.3833,-52.95,ALETHEIA Appartement Sinnamary
19,Bonga,ET,58.62,clear sky,7.2833,36.2333,Abelena bare and restorant
20,Sao Filipe,CV,81.45,overcast clouds,14.8961,-24.4956,Hotel Xaguate
21,Vaini,TO,78.96,few clouds,-21.2,-175.2,Keleti Beach Resort
22,Atuona,PF,77.31,clear sky,-9.8,-139.0333,Villa Enata
23,Guerrero Negro,MX,69.76,clear sky,27.9769,-114.0611,"Casa Laguna, Bed & Breakfast"
26,Corinto,GR,69.89,broken clouds,37.9407,22.9573,Ephira Hotel
27,Arraial Do Cabo,BR,76.96,clear sky,-22.9661,-42.0278,Pousada Porto Praia
28,Chipinge,ZW,64.85,clear sky,-20.1883,32.6236,Chipinge Breeze Lodge
29,Port Alfred,ZA,63.18,light rain,-33.5906,26.891,The Halyards Hotel & Spa
30,Hobart,AU,53.46,clear sky,-42.8794,147.3294,St Ives Hobart Accommodation Tasmania
31,Mataura,NZ,58.48,overcast clouds,-46.1927,168.8643,Ellie's Villa
32,Kruisfontein,ZA,62.89,overcast clouds,-34.0033,24.7314,Oyster Bay House Rental
33,Hilo,US,80.11,clear sky,19.7297,-155.09,Hilo Hawaiian Hotel
34,Hualmay,PE,69.82,scattered clouds,-11.0964,-77.6139,Hotel Villa Kitzia Huacho
35,Muros,ES,51.1,overcast clouds,42.7762,-9.0603,Apartment Av. Castelao
36,Itarema,BR,83.52,few clouds,-2.9248,-39.9167,"Sea Lounge! Bar, Club & Restaurant"
37,Hermanus,ZA,60.8,scattered clouds,-34.4187,19.2345,Misty Waves Boutique Hotel
39,Alofi,NU,78.69,scattered clouds,-19.0595,-169.9187,Taloa Heights
42,Fortuna,US,52.99,few clouds,40.5982,-124.1573,Super 8 by Wyndham Fortuna
46,Butaritari,KI,80.98,clear sky,3.0707,172.7902,Isles Sunset Lodge
47,Mana,GF,83.5,scattered clouds,5.6592,-53.7767,LE SAMANA
48,Waingapu,ID,77.58,heavy intensity rain,-9.6567,120.2641,Pondok Wisata Elim
49,Gra Liyia,GR,69.13,clear sky,35.0167,25.6833,Diktynna Traditional Villas
51,Cape Town,ZA,64.11,scattered clouds,-33.9258,18.4232,"Radisson Blu Hotel Waterfront, Cape Town"
52,Busselton,AU,53.55,overcast clouds,-33.65,115.3333,Observatory Guest House
54,New Norfolk,AU,53.1,overcast clouds,-42.7826,147.0587,The Shingles Riverside Cottages
56,Puerto Ayora,EC,78.76,broken clouds,-0.7393,-90.3518,Finch Bay Galapagos Hotel
58,Avarua,CK,77.05,few clouds,-21.2078,-159.775,Paradise Inn
60,Fontanka,UA,51.42,overcast clouds,46.5626,30.8607,Villa Lavender Hotel
61,Tuatapere,NZ,54.81,overcast clouds,-46.1333,167.6833,Ron and Tony's Bed & Breakfast
62,Bluff,NZ,58.8,overcast clouds,-46.6,168.3333,Bluff Homestead - Guesthouse & Campervan Park
63,Bengkulu,ID,75.18,overcast clouds,-3.8004,102.2655,Grage Hotel Bengkulu
65,Alibag,IN,78.87,clear sky,18.6411,72.8792,"Radisson Blu Resort & Spa - Alibaug, India"
69,Rikitea,PF,71.38,few clouds,-23.1203,-134.9692,People ThankYou
70,Kaeo,NZ,64.33,scattered clouds,-35.1,173.7833,Bushido Lodge
74,Shakawe,BW,84.72,scattered clouds,-18.3667,21.85,EdenWood Lodge
75,Chuy,UY,75.34,clear sky,-33.6971,-53.4616,Nuevo Hotel Plaza
76,Adiake,CI,79.81,overcast clouds,5.2863,-3.304,HOTEL COEUR D'OR
79,Quatre Cocos,MU,69.1,few clouds,-20.2078,57.7625,Sunrise Attitude Hotel
83,Taltal,CL,65.59,scattered clouds,-25.4,-70.4833,Residencial Karime
85,Miura,JP,53.58,clear sky,35.14,139.6192,ホテル京急油壺 観潮荘
86,Dunedin,NZ,52.81,overcast clouds,-45.8742,170.5036,Scenic Hotel Southern Cross
87,San Cristobal,VE,73.58,scattered clouds,7.7669,-72.225,Pirineos
89,Harper,LR,78.8,clear sky,4.375,-7.7169,Screensaver
90,Sao Joao Da Barra,BR,78.89,clear sky,-21.6403,-41.0511,Pousada Porto De Canoas
91,Saint-Philippe,RE,71.19,few clouds,-21.3585,55.7679,Le four à pain
94,Show Low,US,50.61,clear sky,34.2542,-110.0298,Hampton Inn & Suites Show Low-Pinetop
102,Georgetown,MY,80.89,few clouds,5.4112,100.3354,Cititel Penang
108,Arlit,NE,76.6,few clouds,18.7369,7.3853,Case de Passage De la Prefecture
111,Narasannapeta,IN,68.47,overcast clouds,18.4167,84.05,AVK events and catering
112,Lebu,CL,61.65,few clouds,-37.6167,-73.65,Hostal Las Lilas
113,Hithadhoo,MV,81.14,broken clouds,-0.6,73.0833,Scoop Guest House
115,Nuevo Progreso,MX,68.47,overcast clouds,23.1667,-97.95,Balneario Rio el Paraiso
119,Saint George,US,52.25,clear sky,37.1041,-113.5841,Best Western Plus Abbey Inn
123,Pak Phanang,TH,77.86,overcast clouds,8.3511,100.202,Green Park Inn Hotel
127,Goedereede,NL,51.01,overcast clouds,51.8175,3.9806,Hotel-Pension Ouddorp
128,Mersing,MY,78.71,scattered clouds,2.4312,103.8405,Timotel Hotel
129,Coihaique,CL,58.95,few clouds,-45.5752,-72.0662,Diego De Almagro Coyhaique
131,Ures,MX,74.21,clear sky,29.4333,-110.4,HOTEL SAHUARO HOUSE
132,Pimentel,PE,75.49,clear sky,-6.8367,-79.9342,Hotel Puerto del Sol
134,Paracuru,BR,81.1,few clouds,-3.41,-39.0306,Hotel Vento Brasil
136,Ponta Do Sol,PT,66.83,clear sky,32.6667,-17.1,Hotel do Campo
137,Kattivakkam,IN,77.09,broken clouds,13.2167,80.3167,Euronova Freezer
139,Axim,GH,78.51,clear sky,4.8699,-2.2405,Axim Beach Resort And Spa
140,Bathsheba,BB,86.61,scattered clouds,13.2167,-59.5167,Atlantis Hotel
141,Takoradi,GH,79.23,clear sky,4.8845,-1.7554,Raybow International Hotel
145,Chivay,PE,63.09,overcast clouds,-15.6383,-71.6011,Casa Andina Standard Colca
146,Pochutla,MX,89.42,few clouds,15.7432,-96.4661,Hotel Posada San Jose
147,Kribi,CM,78.12,broken clouds,2.95,9.9167,La Grace Hôtel
148,Rock Sound,BS,78.84,overcast clouds,24.9,-76.2,Pink Corral Bay Property
150,Yining,CN,57.78,overcast clouds,29.0361,114.5636,Xiushui Hotel
151,Piacabucu,BR,79.41,scattered clouds,-10.4056,-36.4344,Piaçabuçu News
152,Mahebourg,MU,69.26,few clouds,-20.4081,57.7,Shandrani Beachcomber Resort & Spa
153,Puerto Colombia,CO,86.09,moderate rain,10.9878,-74.9547,Hotel El Emigrante
154,East London,ZA,67.71,light rain,-33.0153,27.9116,Tu Casa
155,Alice,US,59.16,overcast clouds,27.7523,-98.0697,"Holiday Inn Express & Suites Alice, an IHG Hotel"
156,Esperance,AU,53.83,light rain,-33.8667,121.9,Hospitality Esperance
158,Baillif,GP,83.7,clear sky,16.0202,-61.7463,Hôtel Saint-Georges
159,Bambanglipuro,ID,75.94,moderate rain,-7.95,110.2833,Puri Brata
162,Hervey Bay,AU,71.26,clear sky,-25.2986,152.8535,Shelly Bay Resort
163,Biak,ID,77.04,overcast clouds,-0.9131,122.8766,Penginapan Kim
164,Garowe,SO,75.6,clear sky,8.4054,48.4845,Sacaada Hotel
165,Salamiyah,SY,59.86,clear sky,35.0113,37.0532,Gondolas Forum grandchildren and grandparents
166,Karratha,AU,72.52,broken clouds,-20.7377,116.8463,ibis Styles Karratha
167,Maceio,BR,83.64,few clouds,-9.6658,-35.7353,Hotel Ponta Verde Maceió
168,Saint-Joseph,RE,70.18,clear sky,-21.3667,55.6167,"""Plantation Bed and Breakfast"
173,Kang,BW,87.49,overcast clouds,-23.6752,22.7876,Kang Ultra Stop
174,Vila Velha,BR,76.95,few clouds,-20.3297,-40.2925,Hotel Vitória Palace
175,Kununurra,AU,80.58,overcast clouds,-15.7667,128.7333,Hotel Kununurra
177,Nabire,ID,76.55,overcast clouds,-3.3667,135.4833,Hotel Nusantara I
178,Jerez,GT,84.65,scattered clouds,14.1,-89.75,Auto hotel Esmeralda
180,Paita,PE,71.33,scattered clouds,-5.0892,-81.1144,Hotel Náutico de Paita
181,Faanui,PF,80.38,light rain,-16.4833,-151.75,Bora-Bora Pearl Beach Resort & Spa
183,Laguna,US,65.14,clear sky,38.421,-121.4238,"Holiday Inn Express & Suites Elk Grove Central - Hwy 99, an IHG Hotel"
184,Port Elizabeth,ZA,65.1,few clouds,-33.918,25.5701,39 On Nile Guest House
185,Kiama,AU,56.57,broken clouds,-34.6833,150.8667,The Sebel Kiama Harbourside
186,Castro,BR,72.39,clear sky,-24.7911,-50.0119,CHACARA BAILLY
187,Hambantota,LK,77.31,scattered clouds,6.1241,81.1185,Bungalow 63
188,Rieti,IT,56.62,broken clouds,42.4072,12.8592,Hotel Miramonti
189,Rodeo,US,66.99,clear sky,38.033,-122.2669,Captain's Cottage
191,Pisco,PE,71.65,clear sky,-13.7,-76.2167,Hotel San Isidro Oficial
192,Aneho,TG,80.71,clear sky,6.2333,1.6,Hotel La Linette
193,Lompoc,US,73.85,clear sky,34.6391,-120.4579,"Holiday Inn Express Lompoc, an IHG Hotel"
194,Bambous Virieux,MU,69.22,few clouds,-20.3428,57.7575,Casa Tia Villa
195,Rawson,AR,69.6,clear sky,-43.3002,-65.1023,Hosteria Sampedro
199,Mabaruma,GY,82.11,light rain,8.2,-59.7833,Monty Brooms Guest House
200,Guayaramerin,BO,87.85,overcast clouds,-10.8368,-65.3614,Hostal FÜNF
202,Saldanha,ZA,62.65,overcast clouds,-33.0117,17.9442,Blue Bay Lodge
204,Vao,NC,72.82,overcast clouds,-22.6667,167.4833,Hotel Kou-Bugny
206,Natalio,PY,89.51,clear sky,-26.7167,-55.0833,Residencia Sánchez -escobar
207,Kismayo,SO,79.11,light rain,-0.3582,42.5454,Agan-Hotel
208,Sirsa,IN,62.98,overcast clouds,29.5333,75.0167,OYO 48542 Hotel Capital
209,Santa Rosa,PH,77.11,overcast clouds,14.3122,121.1114,Erlyn’s Sta Rosa City Home
210,San Pedro,PH,76.35,few clouds,14.35,121.0167,Palines Apartment and Guesthouse
211,Ahipara,NZ,63.54,scattered clouds,-35.1667,173.1667,Ahipara Holiday Park
212,Luwuk,ID,78.42,overcast clouds,-0.9516,122.7875,Hotel Santika Luwuk
213,Taungdwingyi,MM,69.87,broken clouds,20.0167,95.55,NayNaing MobileService
214,Carnarvon,AU,61.75,scattered clouds,-24.8667,113.6333,Hospitality Carnarvon
216,Katsuura,JP,57.36,clear sky,35.1333,140.3,Katsuura Hotel Mikazuki
220,Liverpool,GB,51.58,light rain,53.4106,-2.9779,Premier Inn Liverpool City Centre (Moorfields) hotel
221,Zhicheng,CN,54.36,clear sky,30.2956,111.5047,Wangjiang Building
222,Dingle,PH,74.95,overcast clouds,10.9995,122.6711,SEGAYA PROPERTY
223,Kudahuvadhoo,MV,81.81,overcast clouds,2.6708,72.8944,Niyama Private Islands Maldives
225,Geraldton,AU,55.81,scattered clouds,-28.7667,114.6,Broadwater Mariner Resort
227,Balsas,BR,83.34,overcast clouds,-7.5325,-46.0356,Novo Hotel
228,Sakakah,SA,60.37,broken clouds,29.9697,40.2064,Fakhamat Al Orjoana Apartment
229,Namibe,AO,71.64,few clouds,-15.1961,12.1522,Hotel Chik Chik Namibe
231,Muisne,EC,76.46,overcast clouds,0.6,-80.0333,Quinta Samay
232,San Patricio,US,60.75,overcast clouds,28.017,-97.5169,"Motel 6 Sinton, TX"
233,San Isidro,PE,69.39,scattered clouds,-12.1167,-77.05,Radisson Hotel Decapolis Miraflores
238,Amalapuram,IN,69.96,few clouds,16.5833,82.0167,swayamprabha service apartments
239,Lishan,CN,53.85,broken clouds,31.8576,113.2951,Hongdu Hotel
240,Mount Gambier,AU,57.22,light rain,-37.8333,140.7667,The Commodore
243,Kapaa,US,78.78,light rain,22.0752,-159.319,Sheraton Kauai Coconut Beach Resort
245,Yako,BF,79.75,overcast clouds,12.9667,-2.2667,CADAAY
246,Basoko,CD,69.67,broken clouds,1.2391,23.616,Jackyna Hotel
252,Camara De Lobos,PT,66.83,scattered clouds,32.6333,-16.9667,Golden Residence Hotel
254,Carmen,MX,82.44,scattered clouds,18.6333,-91.8333,Hotel Lossandes
255,Hit,IQ,63.1,clear sky,33.6416,42.8251,المعلق حسان رزاق
256,Ca Mau,VN,75.92,overcast clouds,9.1769,105.15,Mường Thanh Luxury Cà Mau Hotel
258,Shima,CN,68.02,clear sky,24.4478,117.8111,龙海钻石大酒店
259,Amahai,ID,78.19,overcast clouds,-3.3333,128.9167,HOTEL ISABELA
261,Garissa,KE,75.97,light rain,-0.4536,39.6401,Sharif Plaza Hotel
262,Labuhan,ID,77.4,overcast clouds,-6.8844,112.2051,DoubleFAG
263,Lorengau,PG,81.75,overcast clouds,-2.0226,147.2712,Lorengau Harbourside Hotel
266,Huarmey,PE,68.94,overcast clouds,-10.0681,-78.1522,Hotel Miramar
269,Rancho Palos Verdes,US,71.47,clear sky,33.7445,-118.387,Terranea Resort
271,Kavieng,PG,80.8,overcast clouds,-2.5744,150.7967,Nusa Island Retreat
274,Tecoanapa,MX,83.53,few clouds,16.5167,-98.75,Hotel Manglares
277,Kavaratti,IN,81.75,overcast clouds,10.5669,72.642,Green leaf
280,San Rafael,AR,84.24,clear sky,-34.6177,-68.3301,Hotel San Rafael
281,Alta Floresta,BR,82.22,moderate rain,-9.8756,-56.0861,Floresta Amazonica Hotel
282,Ribeira Grande,PT,64.8,broken clouds,38.5167,-28.7,Quinta da Meia Eira
285,Conakry,GN,81.45,overcast clouds,9.538,-13.6773,Riviera Royal Hotel
286,San Andres,CO,82.42,broken clouds,12.5847,-81.7006,Hotel Arena Blanca
289,Trairi,BR,81.37,few clouds,-3.2778,-39.2689,janelas do mar
293,Havelock,US,53.94,clear sky,34.8791,-76.9013,Sherwood Motel
295,Martapura,ID,73.49,overcast clouds,-3.4167,114.85,Montana Hotel Syariah
297,Nouadhibou,MR,71.58,clear sky,20.931,-17.0347,El Medina
303,Eureka,US,53.26,clear sky,40.8021,-124.1637,Eureka Inn Trademark By Wyndham
304,Yeppoon,AU,67.78,scattered clouds,-23.1333,150.7333,Villa Mar Colina
308,Jackson,US,55.38,clear sky,42.4165,-122.8345,Agate Village Apartments
309,Annau,TM,51.3,few clouds,37.8876,58.516,"Гостиница ""Уссат инженер"""
311,Jining,CN,51.55,overcast clouds,35.405,116.5814,Yunhe Star Hotel
312,Lagoa,PT,62.55,broken clouds,39.05,-27.9833,Casa Das Faias
316,Buluang,PH,76.48,heavy intensity rain,13.3068,123.3425,Sacueza Beach Resort
317,Sabang,ID,80.6,light rain,5.8933,95.3214,Hotel Citra
318,Kamwenge,UG,61.93,overcast clouds,0.1866,30.4539,Green View Guest House
320,Te Anau,NZ,55.74,overcast clouds,-45.4167,167.7167,Kingsgate Hotel Te Anau
321,Valparaiso,CL,82.63,clear sky,-33.0393,-71.6273,Hotel Ultramar
322,Ouagadougou,BF,80.53,overcast clouds,12.3642,-1.5383,Pacific Hôtel
324,Mandera,KE,84.27,light rain,3.9366,41.867,Red Sea Resort & Suites Mandera County
326,Dori,BF,81.66,overcast clouds,14.0354,-0.0345,Hôtel Liptako
327,Gunnedah,AU,57.52,clear sky,-30.9833,150.25,Gunnedah Motor Inn
328,Mojoagung,ID,75.47,heavy intensity rain,-7.5667,112.35,Sophie
329,Teluk Nibung,ID,74.86,heavy intensity rain,3.001,99.8164,Hotel Assyifa
331,Santa Lucia,ES,63.77,few clouds,27.9117,-15.5407,Las Tirajanas
333,Kahului,US,83.97,clear sky,20.8947,-156.47,Maui Seaside Hotel
335,Belmonte,BR,73.45,light rain,-15.8631,-38.8828,Pousada Monte Carmelo O Pão
338,Wanning,CN,76.84,overcast clouds,18.8003,110.3967,Paradise Hotel
339,Touros,BR,79.92,clear sky,-5.1989,-35.4608,INN NEW HORIZON
341,Altamira,BR,89.69,scattered clouds,-3.2033,-52.2064,Requinte Hotel
342,Grand Gaube,MU,69.39,clear sky,-20.0064,57.6608,Veranda Paul et Virginie Hotel & Spa
344,Majene,ID,76.75,overcast clouds,-3.5403,118.9707,Kost Putri RABBANI
346,Satwas,IN,60.1,clear sky,22.5333,76.6833,मां नर्मदा स्टाम्प रजिस्ट्री कार्यालय
347,Sahuaripa,MX,77.7,scattered clouds,29.05,-109.2333,Estatua de Sahuaripa
350,Bintulu,MY,75.61,few clouds,3.1667,113.0333,900 Boutique INN
351,Las Palmas,ES,70.59,few clouds,28.4204,-14.0131,Casillas De Morales 59.
353,Victoria,HK,77.38,overcast clouds,22.2855,114.1577,Mini Central
354,Mino,JP,51.03,clear sky,34.8269,135.4706,Ooedo Onsen Monogatari Minoh Kankō Hotel
355,Myitkyina,MM,55.58,clear sky,25.3833,97.4,Shwe Phyu Hotel
357,Ancud,CL,55.44,overcast clouds,-41.8697,-73.8203,Hotel Arena Gruesa
359,Tanta,EG,61.95,clear sky,30.7885,31.0019,Hesham & Fouad Pharma Group Pharmacies
362,Crixas,BR,73.56,overcast clouds,-14.5489,-49.9692,RISO HOTEL
363,Waipawa,NZ,58.55,broken clouds,-41.4122,175.5153,Tora Coastal Walk
365,Gat,IL,65.39,clear sky,31.61,34.7642,OlusHome
367,Kardamaina,GR,67.48,few clouds,36.7814,27.1425,HOTEL
369,Ngunguru,NZ,65.14,few clouds,-35.6167,174.5,Pacific Rendezvous Motel Resort
370,Sigli,ID,78.58,light rain,5.3848,95.9609,Losmen Dua Mali
371,Hurghada,EG,69.84,clear sky,27.2574,33.8129,Sea Star Beau Rivage Hotel
372,Senador Jose Porfirio,BR,89.02,broken clouds,-2.5908,-51.9542,Hotel Praia
374,Itaituba,BR,82.56,scattered clouds,-4.2761,-55.9836,Hotel Campos
375,Ancona,IT,56.66,mist,43.55,13.1667,Casa Vandina - B&B
378,Djibo,BF,81.16,few clouds,14.1022,-1.6306,Centre Des Ressources DPENA
379,Kuito,AO,61.7,overcast clouds,-12.3833,16.9333,Herdeiros de Antunes Capusso
380,Fukue,JP,63.57,overcast clouds,32.6881,128.8419,Goto Guesthouse Utojuku & SA Car Rental
381,San Jeronimo,PE,65.23,overcast clouds,-11.9472,-75.2829,Tuki Llajta Pueblo Bonito Eco Lodge
383,Padang,ID,75.79,overcast clouds,-0.9492,100.3543,Mercure Padang
384,Cockburn Town,TC,82.36,scattered clouds,21.4612,-71.1419,Osprey Beach Hotel
385,Along,IN,53.71,clear sky,28.1667,94.7667,Hotel West
387,Ambon,ID,77.14,scattered clouds,-3.6954,128.1814,Swiss-Belhotel Ambon
389,Cacapava Do Sul,BR,83.95,clear sky,-30.5122,-53.4914,Hotel Portal
390,Namatanai,PG,79.09,overcast clouds,-3.6667,152.4333,Seagulls Inn Namatani
391,Coquimbo,CL,64.13,broken clouds,-29.9533,-71.3436,Hotel San Juan
394,Necochea,AR,64.98,light rain,-38.5473,-58.7368,dyd -mar Hotel
396,Atar,MR,76.86,clear sky,20.5169,-13.0499,Oumou Elghoura
397,Solano,US,68.65,clear sky,38.2333,-121.9511,Westwind Inn
398,Faya,SA,60.91,few clouds,18.3851,42.4509,شيلة نسايم
400,Jiwani,PK,78.55,broken clouds,25.05,61.7417,Hooth Market
402,Ixtapa,MX,78.03,scattered clouds,20.7,-105.2,hotel la terminal
403,Gambela,ET,75.25,clear sky,8.25,34.5833,Solomon Debebe Hotel
405,Silver City,US,52.92,clear sky,32.7701,-108.2803,Copper Manor Motel
408,Burnie,AU,51.94,overcast clouds,-41.0667,145.9167,Beachfront Voyager Motor Inn
412,Viedma,AR,79.38,overcast clouds,-40.8135,-62.9967,Hotel Cristal
413,Marrakesh,MA,62.67,broken clouds,31.6315,-8.0083,Les Jardins de La Koutoubia
414,Bagotville,AU,62.08,clear sky,-28.9833,153.4167,Broadwater Sunrise Caravan Park
415,Tutoia,BR,81.16,broken clouds,-2.7619,-42.2744,Pousada Guará's
419,Voh,NC,74.25,overcast clouds,-20.9667,164.7,Le gîte du Koniambo
420,Jalu,LY,69.96,clear sky,29.0331,21.5482,صاحبة الفخامة
424,Villa Union,MX,82.36,scattered clouds,23.2,-106.2333,My Fantasy Auto-Hotel
425,Ibipeba,BR,73.89,moderate rain,-11.6408,-42.0111,Quitanda santos
426,Arcata,US,53.58,clear sky,40.8665,-124.0828,"Hampton Inn & Suites Arcata, CA"
427,Marsa Matruh,EG,71.8,clear sky,31.3525,27.2453,Beau Site
428,Olinda,BR,82.13,scattered clouds,-8.0089,-34.8553,Flat Quatro Rodas Olinda
429,Pangkalanbuun,ID,73.09,overcast clouds,-2.6833,111.6167,Grand Kecubung Hotel
430,Vazante,BR,82.18,scattered clouds,-17.9869,-46.9078,Hotel Pousada e Restaurante
434,Colesberg,ZA,71.04,broken clouds,-30.72,25.0972,Bhelekazi Guesthouse
435,Asenovgrad,BG,51.28,mist,42.0167,24.8667,Hotel Color
436,Sola,VU,81.59,overcast clouds,-13.8833,167.55,Leumerus Bungalows
438,Kenitra,MA,57.96,broken clouds,34.261,-6.5802,Bienvenue chez vous
442,Salalah,OM,80.69,scattered clouds,17.0151,54.0924,"HAMDAN PLAZA HOTEL SALALAH, an HTG Hotel"
444,Abu Kamal,SY,63.32,clear sky,34.4506,40.9171,محطة التلفاز
445,Ranong,TH,75.92,overcast clouds,9.9658,98.6348,Numsai Khaosuay Resort Ranong
448,Talara,PE,79.56,clear sky,-4.5772,-81.2719,Hostal Oro Negro
449,Mazara Del Vallo,IT,67.95,clear sky,37.6641,12.588,Vizier Resort & Spa
451,Benghazi,LY,70.57,clear sky,32.1167,20.0667,Tibesti Hotel
453,Beitbridge,ZW,87.53,clear sky,-22.2167,30.0,Beitbridge Express Hotel
456,Bowen,AU,79.25,overcast clouds,-20.0167,148.2333,Castle Motor Lodge Motel
458,Mogadishu,SO,79.48,broken clouds,2.0371,45.3438,Hotel Juba
460,Muroto,JP,60.15,broken clouds,33.2833,134.15,Oota Ryokan
462,Celestun,MX,81.72,broken clouds,20.8667,-90.4,Posada Lilia
466,Umm Lajj,SA,75.9,overcast clouds,25.0213,37.2685,Moon light Furnished Units
472,Lata,PT,56.8,scattered clouds,40.1629,-8.3327,Terraços da Beira
476,Sassandra,CI,78.17,light rain,4.95,-6.0833,la terrasse
477,Redmond,US,50.38,clear sky,47.674,-122.1215,Seattle Marriott Redmond
481,Udalguri,IN,61.38,clear sky,26.7667,92.1333,Somesh Basumatary
482,Jieshi,CN,70.83,clear sky,22.8134,115.8257,Yuehai Hotel
483,Cienfuegos,CU,84.34,broken clouds,22.1461,-80.4356,Casa Claumar B2BPay
484,Luau,AO,64.81,light rain,-10.7073,22.2247,Kimbo Hotel
486,Tra Vinh,VN,77.32,overcast clouds,9.9347,106.3453,Hồng Ân
488,Najran,SA,65.05,clear sky,17.4924,44.1277,محمد هادي ال فطيح
489,Mosquera,CO,60.89,broken clouds,4.7059,-74.2302,Hotel SJ
492,Camana,PE,69.39,scattered clouds,-16.6228,-72.7111,Hostal Morales
493,Tame,CO,74.53,overcast clouds,6.461,-71.73,Hospedaje Santa Ana
494,Mahibadhoo,MV,81.1,overcast clouds,3.7833,72.9667,Omadhoo Inn
495,Tarakan,ID,76.5,broken clouds,3.3,117.6333,RedDoorz Syariah near Taman Berlabuh Tarakan
497,Clarence Town,AU,60.85,clear sky,-32.5833,151.7833,River Downs Cottage
498,Kirkuk,IQ,58.64,clear sky,35.4681,44.3922,Cihad Oteli
503,Pitimbu,BR,82.99,overcast clouds,-7.4706,-34.8086,Reserva do Abiaí
505,Richards Bay,ZA,73.92,clear sky,-28.783,32.0377,BON Hotel Waterfront Richards Bay
506,Mitsamiouli,KM,78.21,clear sky,-11.3847,43.2844,Foyer ADM
507,Ciudad Bolivar,VE,85.8,overcast clouds,8.1222,-63.5497,Hotel Edi
508,Novita,CO,79.56,overcast clouds,4.9551,-76.6053,B/ Buenos Aires Sector Las Curvitas
510,Flinders,AU,57.38,overcast clouds,-34.5833,150.8552,Shellharbour Resort & Conference Centre
511,Isla Mujeres,MX,80.65,light rain,21.2311,-86.731,Hotel La Joya Isla Mujeres
513,Calama,CL,77.49,clear sky,-22.4667,-68.9333,Park Hotel Calama
514,Zhob,PK,54.52,overcast clouds,31.3411,69.4481,Afghan Kor Zhob
515,Mbuji-Mayi,CD,68.85,overcast clouds,-6.15,23.6,HOTEL METROPOLE DU KASAI
517,Bhuj,IN,71.74,clear sky,23.2667,69.6667,Regenta Resort Bhuj
518,Souillac,MU,68.38,few clouds,-20.5167,57.5167,Shanti Maurice Resort & Spa
521,Sao Gabriel Da Cachoeira,BR,82.2,few clouds,-0.1303,-67.0892,Alarne - Área De Lazer Do Alto Rio Negro
522,Bombay,IN,78.78,smoke,19.0144,72.8479,Hotel Avon Ruby-Dadar Hotels
523,Veraval,IN,74.91,clear sky,20.9,70.3667,Lords Inn Somnath
525,San Quintin,MX,65.21,clear sky,30.4833,-115.95,Don Eddie's Sport Fishing Center
527,Vila Franca Do Campo,PT,61.2,broken clouds,37.7167,-25.4333,Pestana Bahia Praia
528,Malmesbury,ZA,60.78,overcast clouds,-33.4608,18.7271,SuNel's Guest Rooms
529,Anloga,GH,81.19,clear sky,5.7947,0.8973,Pin Drop Hotel
530,Jimma,ET,60.64,broken clouds,7.6667,36.8333,Jimma Central Hotel
531,Sfantu Gheorghe,RO,54.57,overcast clouds,45.8667,25.7833,Hotel Park
532,Kota Tinggi,MY,82.44,light rain,1.7381,103.8999,Canopy Tribe
536,Samarai,PG,82.6,overcast clouds,-10.6167,150.6667,Nuli Sapi
537,Americo Brasiliense,BR,85.08,scattered clouds,-21.7244,-48.1017,Santuário da Fé
538,Aboso,GH,75.31,few clouds,5.3617,-1.9473,New Atuabo
539,Elizabeth City,US,53.04,clear sky,36.2946,-76.2511,Hampton Inn Elizabeth City
542,Los Llanos De Aridane,ES,67.75,scattered clouds,28.6585,-17.9182,Valle Aridane
544,Nishihara,JP,74.48,broken clouds,26.1842,127.7558,Minshuku Agaihama
550,Itoman,JP,75.22,broken clouds,26.1247,127.6694,Southern Beach Hotel & Resort Okinawa
551,Acapulco,MX,87.62,clear sky,16.8634,-99.8901,HS Hotsson Smart Acapulco
552,Palu,ID,74.1,overcast clouds,-0.8917,119.8707,Hotel Santika Palu
555,Adeje,ES,72.48,few clouds,28.1227,-16.726,Gran Tacande Wellness & Relax
556,Tondano,ID,68.09,overcast clouds,1.3038,124.9112,Villa Bella
557,Bonthe,SL,79.54,broken clouds,7.5264,-12.505,Bonthe Holiday Village
564,Caravelas,BR,72.82,overcast clouds,-17.7125,-39.2481,Pousada dos Navegantes
570,Hobyo,SO,80.26,clear sky,5.3505,48.5268,Halane Hotel and Restaurent
573,Yabelo,ET,61.43,clear sky,4.8833,38.0833,Asnakech W/michael
574,Apodi,BR,89.55,broken clouds,-5.6642,-37.7989,Churrascaria e pousada
579,Bodhan,IN,62.69,broken clouds,18.6667,77.9,Shiva Reddy. A
582,Kolondieba,ML,76.84,overcast clouds,11.0882,-6.8926,Park
583,Primero De Enero,CU,82.02,overcast clouds,21.9469,-78.4283,Motel Dos Palmas (Maria Machete)
584,Ridgecrest,US,59.38,overcast clouds,35.6225,-117.6709,SpringHill Suites by Marriott Ridgecrest
585,Kalemie,CD,69.66,light rain,-5.9475,29.1947,Mahobilali
586,Kuchera,IN,64.65,scattered clouds,26.9839,73.9719,Surendra Java
587,Saint-Georges,GD,85.68,few clouds,12.0564,-61.7485,Radisson Grenada Beach Resort
588,Puerto Carreno,CO,78.78,few clouds,6.189,-67.4859,Casa Hotel Victoria
589,Grand-Lahou,CI,79.03,light rain,5.1367,-5.0242,Hotel Beatitude de Grand Lahou
591,Shimoda,JP,56.68,clear sky,34.6667,138.95,Shimoda Tokyu Hotel
592,Morondava,MG,79.5,scattered clouds,-20.2833,44.2833,La Case Bambou
593,Unai,BR,82.87,broken clouds,-16.3575,-46.9061,Hotel Regente
597,Cabedelo,BR,83.07,broken clouds,-6.9811,-34.8339,Pousada Camboinha
599,Buraydah,SA,63.05,overcast clouds,26.326,43.975,Mövenpick Qassim
602,Alexandria,EG,61.34,clear sky,31.2156,29.9553,فندق قاعود
603,Soufriere,LC,83.86,broken clouds,13.8562,-61.0566,Anse Chastanet Resort
604,Boddam,GB,50.38,overcast clouds,57.4667,-1.7833,Palace Hotel
606,Sabha,LY,68.56,clear sky,27.0377,14.4283,محطة ام الارانب -سبها مواصلات
607,Punta Alta,AR,68.54,light rain,-38.8759,-62.0736,Center Hotel Punta Alta
610,Pemba,MZ,78.71,clear sky,-12.974,40.5178,Guesthouse Samotina
611,Dakar,SN,85.08,clear sky,14.6937,-17.4441,Novotel Dakar
612,Atocha,BO,69.33,broken clouds,-20.9333,-66.2333,ALOJAMIENTO RESTAURANT BARQUITO
614,South Venice,US,72.14,clear sky,27.0531,-82.4243,"Island Sun Inn & Suites - Venice, Florida Historic Downtown & Beach Getaway"
615,Katherine,AU,80.92,overcast clouds,-14.4667,132.2667,Pine Tree Motel
616,Porbandar,IN,76.24,clear sky,21.6422,69.6093,Lords Inn Porbandar
617,Tamboril,DO,83.7,scattered clouds,19.4854,-70.611,Camp David Ranch Restaurant
618,Bairiki,KI,80.6,few clouds,1.3292,172.9752,Tarawa Boutique Hotel
619,Gopalpur,IN,69.64,overcast clouds,19.2667,84.9167,Gopalpur Palm Resort
621,Bambui,BR,82.58,scattered clouds,-20.0064,-45.9769,Paulinelli Palace Hotel
622,Belgrade,RS,52.7,broken clouds,44.804,20.4651,Saruna Wellness - Hotel Park Belgrade
623,Panaba,MX,80.87,overcast clouds,21.2833,-88.2667,Hotel Don Fernando
624,Port Blair,IN,79.65,overcast clouds,11.6667,92.75,"Welcomhotel By ITC Hotels, Port Blair - Premium Hotel Near the Airport | Idyllic Island Experience Vacation"
625,Bilma,NE,71.6,few clouds,18.6853,12.9164,Expeditions Ténére voyages
628,Nanga Eboko,CM,72.05,few clouds,4.6833,12.3667,Motel Papi Palace
629,Vangaindrano,MG,73.27,light rain,-23.35,47.6,Hotel Fanilo
631,Macia,MZ,81.77,overcast clouds,-25.0269,33.0989,Hotel Taskin Macia
634,Loei,TH,63.07,broken clouds,17.4167,101.5,Ban Aloi Resort
636,Awbari,LY,68.25,clear sky,26.5921,12.7805,استراحة الشارب العائلي
638,Port-Gentil,GA,78.76,few clouds,-0.7193,8.7815,Fengshui Residence
639,Marawi,PH,69.44,overcast clouds,7.9986,124.2928,Derogongan Residence
641,Galveston,US,59.18,overcast clouds,29.3669,-94.9669,Crystal Suites
642,Kiunga,PG,72.36,overcast clouds,-6.1219,141.2906,Airport Lodge Kiunga
644,Auki,SB,76.98,scattered clouds,-8.7676,160.7034,Auki Motel
645,Doha,QA,80.91,clear sky,25.2867,51.5333,Mövenpick Doha
647,Apsheronsk,RU,50.76,overcast clouds,44.46,39.73,Profilaktoriy Svetlyy
648,Tamandare,BR,79.05,clear sky,-8.7597,-35.1047,Pousada 100 Passos
652,Humaita,BR,82.33,overcast clouds,-7.5061,-63.0208,Corrêa Hotel
657,Angoche,MZ,79.11,clear sky,-16.2325,39.9086,Guest House HESADA
662,Manakara,MG,74.03,scattered clouds,-22.1333,48.0167,La Residence Manakara
663,Kopong,BW,79.03,clear sky,-24.4833,25.8833,MsLo Kopong residency
664,Santa Marta,CO,87.85,scattered clouds,11.2408,-74.199,Hotel La Ballena Azul
665,Chiang Rai,TH,73.38,clear sky,19.9167,99.9167,Imsuk Homestay at Chiang Rai
668,Mecca,SA,77.25,clear sky,21.4267,39.8261,"Makkah Clock Royal Tower, A Fairmont Hotel"
671,Coahuayana,MX,88.09,clear sky,18.7333,-103.6833,El rranchito michuacan de ocampos
673,Bati,ET,62.85,clear sky,11.1833,40.0167,Adem Endris Home
675,Mount Isa,AU,69.57,clear sky,-20.7333,139.5,ibis Styles Mt Isa Verona
676,San Juan Bautista,PE,85.69,broken clouds,-14.0108,-75.7358,Hotel Las Dunas
678,Ondjiva,AO,84.42,overcast clouds,-17.0667,15.7333,COMBUESA
679,Bandar-E Anzali,IR,60.91,clear sky,37.4727,49.4622,هتل بیاچ
681,Fort-Shevchenko,KZ,50.22,overcast clouds,44.5086,50.263,Oasis hotel Bautino
682,Puri,IN,68.52,overcast clouds,19.8,85.85,OYO 1577 Hotel Shree Hari Grand
685,Yulara,AU,72.48,clear sky,-25.2406,130.9889,Desert Gardens Hotel - Ayers Rock Resort
688,Lazaro Cardenas,MX,84.58,clear sky,17.9583,-102.2,HOTEL QUINTA ANTIGUA
689,Kuala Terengganu,MY,76.95,few clouds,5.3302,103.1408,Hotel Grand Continental Kuala Terengganu (4 Star)
690,Singaraja,ID,79.07,overcast clouds,-8.112,115.0882,Puri Bagus Lovina Resort
